{
  "type": "FeatureCollection",
  "features": [
    {
      "type": "Feature",
      "properties": {
        "Places and Items": "Zitakua/Tepic",
        "Other names": "N/A",
        "Ecological/Environmental": "N/A",
        "Cultural Elements": "N/A",
        "Socio-Political": "N/A"
      },
      "geometry": {
        "type": "Point",
        "coordinates": [-104.869444, 21.504722]
      }
    },
    {
      "type": "Feature",
      "properties": {
        "Places and Items": "Zacatecas",
        "Other names": "N/A",
        "Ecological/Environmental": "N/A",
        "Cultural Elements": "N/A",
        "Socio-Political": "N/A"
      },
      "geometry": {
        "type": "Point",
        "coordinates": [-102.593611, 22.761944]
      }
    },
    {
      "type": "Feature",
      "properties": {
        "Places and Items": "Villa de Ramos/Tatei Matinieri",
        "Other names": "Tatei Matinieri",
        "Ecological/Environmental": "N/A",
        "Cultural Elements": "N/A",
        "Socio-Political": "N/A"
      },
      "geometry": {
        "type": "Point",
        "coordinates": [-101.916944, 22.8325]
      }
    },
    {
      "type": "Feature",
      "properties": {
        "Places and Items": "Villa de Guadalupe",
        "Other names": "Villa Gustavo Madero / Mexico City",
        "Ecological/Environmental": "N/A",
        "Cultural Elements": "N/A",
        "Socio-Political": "N/A"
      },
      "geometry": {
        "type": "Point",
        "coordinates": [-99.112778, 19.483889]
      }
    },
    {
      "type": "Feature",
      "properties": {
        "Places and Items": "Tuxpán de Bolaños",
        "Other names": "Karuxi",
        "Ecological/Environmental": "N/A",
        "Cultural Elements": "N/A",
        "Socio-Political": "N/A"
      },
      "geometry": {
        "type": "Point",
        "coordinates": [-104.0125, 21.875833]
      }
    },
    {
      "type": "Feature",
      "properties": {
        "Places and Items": "Teuchitlán / Guachimontones",
        "Other names": "N/A",
        "Ecological/Environmental": "Archaeological findings suggest this may be Xapawiyemetá",
        "Cultural Elements": "N/A",
        "Socio-Political": "N/A"
      },
      "geometry": {
        "type": "Point",
        "coordinates": [-103.8325, 20.698056]
      }
    },
    {
      "type": "Feature",
      "properties": {
        "Places and Items": "Santa Catarina Cuexcomatitlán",
        "Other names": "Tuapurie",
        "Ecological/Environmental": "N/A",
        "Cultural Elements": "N/A",
        "Socio-Political": "N/A"
      },
      "geometry": {
        "type": "Point",
        "coordinates": [-104.109167, 22.155556]
      }
    },
    {
      "type": "Feature",
      "properties": {
        "Places and Items": "San Sebastián Teponahuaxtlán",
        "Other names": "Waut+a",
        "Ecological/Environmental": "N/A",
        "Cultural Elements": "N/A",
        "Socio-Political": "N/A"
      },
      "geometry": {
        "type": "Point",
        "coordinates": [-104.062778, 22.082778]
      }
    },
    {
      "type": "Feature",
      "properties": {
        "Places and Items": "San Andrés Cohamiata",
        "Other names": "Tateikié",
        "Ecological/Environmental": "N/A",
        "Cultural Elements": "N/A",
        "Socio-Political": "N/A"
      },
      "geometry": {
        "type": "Point",
        "coordinates": [-104.242222, 22.189444]
      }
    },
    {
      "type": "Feature",
      "properties": {
        "Places and Items": "Salto de Juanacatlán",
        "Other names": "The Mexican Niagara",
        "Ecological/Environmental": "Heavily polluted section of the Santiago River with severe ecological degradation.",
        "Cultural Elements": "Former tourist and recreation site for Guadalajara residents.",
        "Socio-Political": "Industrial development after 1965; textile and assembly plant expansion."
      },
      "geometry": {
        "type": "Point",
        "coordinates": [-103.175556, 20.513056]
      }
    },
    {
      "type": "Feature",
      "properties": {
        "Places and Items": "Resorts Riviera Nayarit",
        "Other names": "N/A",
        "Ecological/Environmental": "N/A",
        "Cultural Elements": "N/A",
        "Socio-Political": "N/A"
      },
      "geometry": {
        "type": "Point",
        "coordinates": [-105.467331, 20.808681]
      }
    },
    {
      "type": "Feature",
      "properties": {
        "Places and Items": "Mezquitic",
        "Other names": "Mequitzata",
        "Ecological/Environmental": "N/A",
        "Cultural Elements": "N/A",
        "Socio-Political": "N/A"
      },
      "geometry": {
        "type": "Point",
        "coordinates": [-103.582778, 22.649722]
      }
    },
    {
      "type": "Feature",
      "properties": {
        "Places and Items": "Lake Chapala",
        "Other names": "Xapawiyemetá",
        "Ecological/Environmental": "Mexico’s largest lake, affected by agricultural runoff, industrial discharge, and public health impacts.",
        "Cultural Elements": "Major Wixárika sacred pilgrimage site associated with the great flood.",
        "Socio-Political": "Real estate expansion, land-use change, agro-industry pressures."
      },
      "geometry": {
        "type": "Point",
        "coordinates": [-103.05, 20.220833]
      }
    },
    {
      "type": "Feature",
      "properties": {
        "Places and Items": "Huejuquilla el Alto",
        "Other names": "Hapuripa",
        "Ecological/Environmental": "N/A",
        "Cultural Elements": "N/A",
        "Socio-Political": "N/A"
      },
      "geometry": {
        "type": "Point",
        "coordinates": [-103.893611, 22.63]
      }
    },
    {
      "type": "Feature",
      "properties": {
        "Places and Items": "Hauxa Manaká, Cerro Gordo",
        "Other names": "Hauxa Manaká",
        "Ecological/Environmental": "N/A",
        "Cultural Elements": "One of the five key Wixárika pilgrimage sites.",
        "Socio-Political": "N/A"
      },
      "geometry": {
        "type": "Point",
        "coordinates": [-104.707778, 24.321389]
      }
    }
  ]
}
