{
  "type": "FeatureCollection",
  "features": [
    {
      "type": "Feature",
      "properties": {
        "name": "Zitakua / Tepic",
        "other_names": null,
        "ecological": null,
        "cultural": null,
        "socio_political": null
      },
      "geometry": {
        "type": "Point",
        "coordinates": [-104.869444, 21.504722]
      }
    },
    {
      "type": "Feature",
      "properties": {
        "name": "Zacatecas",
        "other_names": null,
        "ecological": null,
        "cultural": null,
        "socio_political": null
      },
      "geometry": {
        "type": "Point",
        "coordinates": [-102.593611, 22.761944]
      }
    },
    {
      "type": "Feature",
      "properties": {
        "name": "Villa de Ramos / Tatei Matinieri",
        "other_names": "Tatei Matinieri",
        "ecological": null,
        "cultural": null,
        "socio_political": null
      },
      "geometry": {
        "type": "Point",
        "coordinates": [-101.916944, 22.8325]
      }
    },
    {
      "type": "Feature",
      "properties": {
        "name": "Villa de Guadalupe",
        "other_names": "Gustavo Madero / Mexico City",
        "ecological": null,
        "cultural": null,
        "socio_political": null
      },
      "geometry": {
        "type": "Point",
        "coordinates": [-99.112778, 19.483889]
      }
    },
    {
      "type": "Feature",
      "properties": {
        "name": "Tuxpan de Bolaños",
        "other_names": "Karuxi",
        "ecological": null,
        "cultural": null,
        "socio_political": null
      },
      "geometry": {
        "type": "Point",
        "coordinates": [-104.0125, 21.875833]
      }
    },
    {
      "type": "Feature",
      "properties": {
        "name": "Teuchitlán / Guachimontones",
        "other_names": null,
        "ecological": "Archaeological findings indicate this could have been Xapawiyemetá",
        "cultural": null,
        "socio_political": null
      },
      "geometry": {
        "type": "Point",
        "coordinates": [-103.8325, 20.698056]
      }
    },
    {
      "type": "Feature",
      "properties": {
        "name": "Bancos de San Hipólito",
        "other_names": "Uweni Muyewe",
        "ecological": null,
        "cultural": null,
        "socio_political": "Recently gained autonomous status after separation from Tateikié; surrounded by Mestizo and O'dam communities"
      },
      "geometry": {
        "type": "Point",
        "coordinates": [-104.3925, 22.444444]
      }
    },
    {
      "type": "Feature",
      "properties": {
        "name": "Lake Chapala",
        "other_names": "Xapawiyemetá",
        "ecological": "Largest lake in Mexico; affected by industrial discharge causing ecological crises",
        "cultural": "Sacred Wixarika pilgrimage site; associated with the great flood",
        "socio_political": "Real estate pressure, agroindustry, and violence"
      },
      "geometry": {
        "type": "Point",
        "coordinates": [-103.05, 20.220833]
      }
    },
    {
      "type": "Feature",
      "properties": {
        "name": "Bernalejo / Tamatsi Kauyumarie",
        "other_names": "Tamatsi Kauyumarie",
        "ecological": "Volcanic remnant with marine fossils in Sierra de Catorce",
        "cultural": "Important pilgrimage site; also attracts New Age tourism",
        "socio_political": null
      },
      "geometry": {
        "type": "Point",
        "coordinates": [-101.221667, 23.9925]
      }
    },
    {
      "type": "Feature",
      "properties": {
        "name": "Cerro del Quemado",
        "other_names": "Reu'unax+ / Paritikemai",
        "ecological": "Mining impacts and limited forest regrowth",
        "cultural": "Site where the sun was born in Wixarika tradition",
        "socio_political": "Contested land use; mining project under moratorium"
      },
      "geometry": {
        "type": "Point",
        "coordinates": [-100.913611, 23.674167]
      }
    }
  ]
}
