{
  "type": "FeatureCollection",
  "features": [
    {
      "type": "Feature",
      "properties": {
        "Places and Items": "Zitakua/Tepic",
        "Other names": "N/A",
        "Ecological/Environmental": "N/A",
        "Cultural Elements": "N/A",
        "Socio-Political": "N/A"
      },
      "geometry": {
        "type": "Point",
        "coordinates": [-104.869444, 21.504722]
      }
    },
    {
      "type": "Feature",
      "properties": {
        "Places and Items": "Zacatecas",
        "Other names": "N/A",
        "Ecological/Environmental": "N/A",
        "Cultural Elements": "N/A",
        "Socio-Political": "N/A"
      },
      "geometry": {
        "type": "Point",
        "coordinates": [-102.593611, 22.761944]
      }
    },
    {
      "type": "Feature",
      "properties": {
        "Places and Items": "Villa de Ramos/Tatei Matinieri",
        "Other names": "Tatei Matinieri",
        "Ecological/Environmental": "N/A",
        "Cultural Elements": "N/A",
        "Socio-Political": "N/A"
      },
      "geometry": {
        "type": "Point",
        "coordinates": [-101.916944, 22.832500]
      }
    },
    {
      "type": "Feature",
      "properties": {
        "Places and Items": "Villa de Guadalupe",
        "Other names": "Villa Gustavo Madero/Mexico City",
        "Ecological/Environmental": "N/A",
        "Cultural Elements": "N/A",
        "Socio-Political": "N/A"
      },
      "geometry": {
        "type": "Point",
        "coordinates": [-99.112778, 19.483889]
      }
    },
    {
      "type": "Feature",
      "properties": {
        "Places and Items": "Tuxpán de Bolaños",
        "Other names": "Karuxi",
        "Ecological/Environmental": "N/A",
        "Cultural Elements": "N/A",
        "Socio-Political": "N/A"
      },
      "geometry": {
        "type": "Point",
        "coordinates": [-104.012500, 21.875833]
      }
    },
    {
      "type": "Feature",
      "properties": {
        "Places and Items": "Teuchitlán/Guachimontones",
        "Other names": "N/A",
        "Ecological/Environmental": "Arqueological findings indicate this could too have been Xapawiyemetá",
        "Cultural Elements": "N/A",
        "Socio-Political": "N/A"
      },
      "geometry": {
        "type": "Point",
        "coordinates": [-103.832500, 20.698056]
      }
    },
    {
      "type": "Feature",
      "properties": {
        "Places and Items": "Santa Catarina Cuexcomatitlán",
        "Other names": "Tuapurie",
        "Ecological/Environmental": "N/A",
        "Cultural Elements": "N/A",
        "Socio-Political": "N/A"
      },
      "geometry": {
        "type": "Point",
        "coordinates": [-104.109167, 22.155556]
      }
    },
    {
      "type": "Feature",
      "properties": {
        "Places and Items": "San Sebastián Teponohuaxtlán",
        "Other names": "Waut+a",
        "Ecological/Environmental": "N/A",
        "Cultural Elements": "N/A",
        "Socio-Political": "N/A"
      },
      "geometry": {
        "type": "Point",
        "coordinates": [-104.062778, 22.082778]
      }
    },
    {
      "type": "Feature",
      "properties": {
        "Places and Items": "San Andrés Cohamiata",
        "Other names": "Tateikié",
        "Ecological/Environmental": "N/A",
        "Cultural Elements": "N/A",
        "Socio-Political": "N/A"
      },
      "geometry": {
        "type": "Point",
        "coordinates": [-104.242222, 22.189444]
      }
    },
    {
      "type": "Feature",
      "properties": {
        "Places and Items": "Salto de Juanacatlán",
        "Other names": "The Mexican Niagara",
        "Ecological/Environmental": "Located on the Santiago River in what is now the Metropolitan Region of Guadalajara, a site of major biodiversity that is today amongst the most polluted rivers in the hemisphere",
        "Cultural Elements": "Early tourist destination for Guadalajara residents. A site of picnics and marriage proposals",
        "Socio-Political": "Site of major industrial production after 1965 economic trade agreements that pushed siting industry in this region. Silicon Valley, textiles, assembly plants"
      },
      "geometry": {
        "type": "Point",
        "coordinates": [-103.175556, 20.513056]
      }
    },
    {
      "type": "Feature",
      "properties": {
        "Places and Items": "Resorts Riviera Nayarit",
        "Other names": "N/A",
        "Ecological/Environmental": "N/A",
        "Cultural Elements": "N/A",
        "Socio-Political": "N/A"
      },
      "geometry": {
        "type": "Point",
        "coordinates": [-105.467331, 20.808681]
      }
    },
    {
      "type": "Feature",
      "properties": {
        "Places and Items": "Privatized land (peyote extractavism)",
        "Other names": "N/A",
        "Ecological/Environmental": "N/A",
        "Cultural Elements": "N/A",
        "Socio-Political": "N/A"
      },
      "geometry": {
        "type": "Point",
        "coordinates": [-101.221667, 23.992500]
      }
    },
    {
      "type": "Feature",
      "properties": {
        "Places and Items": "Bancos de San Hipólito",
        "Other names": "Uweni Muyewe",
        "Ecological/Environmental": "N/A",
        "Cultural Elements": "N/A",
        "Socio-Political": "Recently gained its autonomous stature after years of separation from Tateikié and being labeled an \"annex\". Surrounded by Mestizo and O'dam communities"
      },
      "geometry": {
        "type": "Point",
        "coordinates": [-104.392500, 22.444444]
      }
    }
  ]
}
